confidence: 0.23
poseMsg: 
  header: 
    seq: 0
    stamp: 
      secs: 9876
      nsecs:  66538000
    frame_id: "xv_dev/map_optical_frame"
  pose: 
    position: 
      x: 0.0012044740498321452
      y: -0.003734428164864704
      z: -0.006348086986314011
    orientation: 
      x: 0.010453682372918514
      y: -0.5882290736709239
      z: 0.8084870850756983
      w: 0.015030325311781109
---
confidence: 0.23
poseMsg: 
  header: 
    seq: 0
    stamp: 
      secs: 9876
      nsecs:  68480000
    frame_id: "xv_dev/map_optical_frame"
  pose: 
    position: 
      x: 0.0011900243846015976
      y: -0.003725598320396154
      z: -0.0063449838594302034
    orientation: 
      x: 0.01045621852268252
      y: -0.5882307157362936
      z: 0.8084859097687048
      w: 0.01502751689827097
---
confidence: 0.23
poseMsg: 
  header: 
    seq: 0
    stamp: 
      secs: 9876
      nsecs:  70561000
    frame_id: "xv_dev/map_optical_frame"
  pose: 
    position: 
      x: 0.0011752146659564423
      y: -0.0037167617094461627
      z: -0.006342262151796546
    orientation: 
      x: 0.010457173122093518
      y: -0.5882237421557723
      z: 0.8084910480016863
      w: 0.015023381635760868
---
confidence: 0.23
poseMsg: 
  header: 
    seq: 0
    stamp: 
      secs: 9876
      nsecs:  72500000
    frame_id: "xv_dev/map_optical_frame"
  pose: 
    position: 
      x: 0.0011606930622944098
      y: -0.0037078694526277997
      z: -0.006339298115512082
    orientation: 
      x: 0.010461128265363486
      y: -0.5882266449124192
      z: 0.8084888472475628
      w: 0.015025408043912102
---
confidence: 0.23
poseMsg: 
  header: 
    seq: 0
    stamp: 
      secs: 9876
      nsecs:  74557000
    frame_id: "xv_dev/map_optical_frame"
  pose: 
    position: 
      x: 0.0011461593860619182
      y: -0.0036987863564365594
      z: -0.006336353603064909
    orientation: 
      x: 0.01045782456977879
      y: -0.5882281983597258
      z: 0.808487728282148
      w: 0.015027101416936233
---
confidence: 0.23
poseMsg: 
  header: 
    seq: 0
    stamp: 
      secs: 9876
      nsecs:  76480000
    frame_id: "xv_dev/map_optical_frame"
  pose: 
    position: 
      x: 0.0011319980999743853
      y: -0.003689668066897802
      z: -0.006333215350449434
    orientation: 
      x: 0.010457649777084847
      y: -0.5882229407408922
      z: 0.8084915908172369
      w: 0.015025216310424928
---
confidence: 0.23
poseMsg: 
  header: 
    seq: 0
    stamp: 
      secs: 9876
      nsecs:  78557000
    frame_id: "xv_dev/map_optical_frame"
  pose: 
    position: 
      x: 0.0011174296635338985
      y: -0.003680531434873613
      z: -0.006330055942715572
    orientation: 
      x: 0.010455565767182049
      y: -0.5882249420526815
      z: 0.8084901526720595
      w: 0.015025702113454942
---
confidence: 0.24
poseMsg: 
  header: 
    seq: 0
    stamp: 
      secs: 9876
      nsecs:  80501000
    frame_id: "xv_dev/map_optical_frame"
  pose: 
    position: 
      x: 0.0010926913877937247
      y: -0.003662387258184436
      z: -0.006322447354598814
    orientation: 
      x: 0.010448474102404617
      y: -0.5882224619335858
      z: 0.8084920635117654
      w: 0.015024909460436976
---
confidence: 0.24
poseMsg: 
  header: 
    seq: 0
    stamp: 
      secs: 9876
      nsecs:  82562000
    frame_id: "xv_dev/map_optical_frame"
  pose: 
    position: 
      x: 0.0010879259218155347
      y: -0.0036608277760789517
      z: -0.006324239883528513
    orientation: 
      x: 0.010447096316857023
      y: -0.5882224792032613
      z: 0.808492069056575
      w: 0.015024893051787282
---
confidence: 0.24
poseMsg: 
  header: 
    seq: 0
    stamp: 
      secs: 9876
      nsecs:  84488000
    frame_id: "xv_dev/map_optical_frame"
  pose: 
    position: 
      x: 0.0010761667194008461
      y: -0.003648148066665312
      z: -0.0063138670786219995
    orientation: 
      x: 0.01043373736057784
      y: -0.5882113210101615
      z: 0.8085001960490132
      w: 0.015033693789701647
---
confidence: 0.24
poseMsg: 
  header: 
    seq: 0
    stamp: 
      secs: 9876
      nsecs:  86488000
    frame_id: "xv_dev/map_optical_frame"
  pose: 
    position: 
      x: 0.0010681140180256326
      y: -0.003640941200496878
      z: -0.006309442870708191
    orientation: 
      x: 0.010436241647407966
      y: -0.5882098997589527
      z: 0.8085012499183496
      w: 0.015030887079289927
---
confidence: 0.24
poseMsg: 
  header: 
    seq: 0
    stamp: 
      secs: 9876
      nsecs:  88477000
    frame_id: "xv_dev/map_optical_frame"
  pose: 
    position: 
      x: 0.0010602015964121519
      y: -0.003633677581180202
      z: -0.006305077329006427
    orientation: 
      x: 0.010424075270129066
      y: -0.5882118284798218
      z: 0.8084998151797934
      w: 0.015041022089994976
---
confidence: 0.24
poseMsg: 
  header: 
    seq: 0
    stamp: 
      secs: 9876
      nsecs:  90480000
    frame_id: "xv_dev/map_optical_frame"
  pose: 
    position: 
      x: 0.0010521701079165317
      y: -0.003626415832951229
      z: -0.006300757586597421
    orientation: 
      x: 0.010427209259377368
      y: -0.5882113150413361
      z: 0.8085002265755272
      w: 0.015036814549918598
---
confidence: 0.24
poseMsg: 
  header: 
    seq: 0
    stamp: 
      secs: 9876
      nsecs:  92477000
    frame_id: "xv_dev/map_optical_frame"
  pose: 
    position: 
      x: 0.0010441866358052998
      y: -0.0036193971294428777
      z: -0.0062965731360365065
    orientation: 
      x: 0.010422872598266542
      y: -0.5882156789834753
      z: 0.8084970674723159
      w: 0.015038969830389635
---
confidence: 0.24
poseMsg: 
  header: 
    seq: 0
    stamp: 
      secs: 9876
      nsecs:  94574000
    frame_id: "xv_dev/map_optical_frame"
  pose: 
    position: 
      x: 0.001036025395948771
      y: -0.0036122997288391954
      z: -0.006292581158926243
    orientation: 
      x: 0.01042119400458288
      y: -0.5882139022826454
      z: 0.8084983781984304
      w: 0.01503915980145269
---
confidence: 0.24
poseMsg: 
  header: 
    seq: 0
    stamp: 
      secs: 9876
      nsecs:  96481000
    frame_id: "xv_dev/map_optical_frame"
  pose: 
    position: 
      x: 0.0010282451249951296
      y: -0.0036053488045534494
      z: -0.006288265651581288
    orientation: 
      x: 0.010409981683244014
      y: -0.5882137302141269
      z: 0.8084984721981592
      w: 0.015048598681057014
---
confidence: 0.24
poseMsg: 
  header: 
    seq: 0
    stamp: 
      secs: 9876
      nsecs:  98476000
    frame_id: "xv_dev/map_optical_frame"
  pose: 
    position: 
      x: 0.001020259025927632
      y: -0.003598577692176028
      z: -0.006284072360488307
    orientation: 
      x: 0.010425075808220611
      y: -0.5882139508395359
      z: 0.8084982744477909
      w: 0.015040147843889538
---
confidence: 0.2
poseMsg: 
  header: 
    seq: 0
    stamp: 
      secs: 9876
      nsecs: 100523000
    frame_id: "xv_dev/map_optical_frame"
  pose: 
    position: 
      x: 0.0010258566580611344
      y: -0.003601342419232961
      z: -0.006284379635601203
    orientation: 
      x: 0.01041241458701252
      y: -0.5882124657890734
      z: 0.8084994044042586
      w: 0.015046255044020563
---
confidence: 0.2
poseMsg: 
  header: 
    seq: 0
    stamp: 
      secs: 9876
      nsecs: 102555000
    frame_id: "xv_dev/map_optical_frame"
  pose: 
    position: 
      x: 0.0010189109434203681
      y: -0.003595798795156509
      z: -0.006280507597969806
    orientation: 
      x: 0.010412753047066698
      y: -0.5882172038081097
      z: 0.8084960097553566
      w: 0.015043202049439267
---
confidence: 0.2
poseMsg: 
  header: 
    seq: 0
    stamp: 
      secs: 9876
      nsecs: 104490000
    frame_id: "xv_dev/map_optical_frame"
  pose: 
    position: 
      x: 0.0010121790025191734
      y: -0.003590385466514026
      z: -0.00627652520958983
    orientation: 
      x: 0.010413776568236706
      y: -0.5882134721997839
      z: 0.8084987429530648
      w: 0.015041510019254868
---
confidence: 0.2
poseMsg: 
  header: 
    seq: 0
    stamp: 
      secs: 9876
      nsecs: 106547000
    frame_id: "xv_dev/map_optical_frame"
  pose: 
    position: 
      x: 0.0010052901694964918
      y: -0.003584859135944905
      z: -0.006272795777276021
    orientation: 
      x: 0.010409842679963742
      y: -0.5882140017733505
      z: 0.8084983740581109
      w: 0.0150433519747055
---
confidence: 0.2
poseMsg: 
  header: 
    seq: 0
    stamp: 
      secs: 9876
      nsecs: 108489000
    frame_id: "xv_dev/map_optical_frame"
  pose: 
    position: 
      x: 0.0009985618957292991
      y: -0.003579350234398859
      z: -0.006268954095021018
    orientation: 
      x: 0.01041194084642062
      y: -0.588214069359854
      z: 0.8084983441720878
      w: 0.015040863206883153
---
confidence: 0.2
poseMsg: 
  header: 
    seq: 0
    stamp: 
      secs: 9876
      nsecs: 110552000
    frame_id: "xv_dev/map_optical_frame"
  pose: 
    position: 
      x: 0.0009917000002787311
      y: -0.003573644363059409
      z: -0.006265422341225115
    orientation: 
      x: 0.01040903762795211
      y: -0.5882168907936115
      z: 0.8084962680028817
      w: 0.01504413328355785
---
confidence: 0.2
poseMsg: 
  header: 
    seq: 0
    stamp: 
      secs: 9876
      nsecs: 112479000
    frame_id: "xv_dev/map_optical_frame"
  pose: 
    position: 
      x: 0.0009876925844409705
      y: -0.0035722757406284273
      z: -0.006267328564613641
    orientation: 
      x: 0.010407493511989262
      y: -0.5882185427159599
      z: 0.8084950593610315
      w: 0.015045566549552932
---
confidence: 0.2
poseMsg: 
  header: 
    seq: 0
    stamp: 
      secs: 9876
      nsecs: 114542000
    frame_id: "xv_dev/map_optical_frame"
  pose: 
    position: 
      x: 0.0009834023411219488
      y: -0.003570810526266231
      z: -0.006269369321672125
    orientation: 
      x: 0.010405840418359739
      y: -0.5882203112187965
      z: 0.8084937654103118
      w: 0.015047100969621165
---
confidence: 0.2
poseMsg: 
  header: 
    seq: 0
    stamp: 
      secs: 9876
      nsecs: 116497000
    frame_id: "xv_dev/map_optical_frame"
  pose: 
    position: 
      x: 0.0009739619495111143
      y: -0.003560912571634742
      z: -0.006260820895226634
    orientation: 
      x: 0.010418792336834772
      y: -0.5882132101154594
      z: 0.8084989339817155
      w: 0.015038017237080852
---
confidence: 0.2
poseMsg: 
  header: 
    seq: 0
    stamp: 
      secs: 9876
      nsecs: 118565000
    frame_id: "xv_dev/map_optical_frame"
  pose: 
    position: 
      x: 0.0009668425025633386
      y: -0.0035549733358282262
      z: -0.006257621316329127
    orientation: 
      x: 0.010413285180254212
      y: -0.5882141285851294
      z: 0.8084982948742382
      w: 0.015040266291706395
---
confidence: 0.2
poseMsg: 
  header: 
    seq: 0
    stamp: 
      secs: 9876
      nsecs: 120492000
    frame_id: "xv_dev/map_optical_frame"
  pose: 
    position: 
      x: 0.0009601241536145339
      y: -0.0035488598521622883
      z: -0.006254351986281019
    orientation: 
      x: 0.01040979899154532
      y: -0.5882141088198188
      z: 0.8084983247128312
      w: 0.01504184851978042
---
confidence: 0.2
poseMsg: 
  header: 
    seq: 0
    stamp: 
      secs: 9876
      nsecs: 122447000
    frame_id: "xv_dev/map_optical_frame"
  pose: 
    position: 
      x: 0.000955724154782714
      y: -0.0035469694134293186
      z: -0.006256678598689431
    orientation: 
      x: 0.010415966985465977
      y: -0.5882208298861605
      z: 0.8084933045509065
      w: 0.015044580959071128
---
confidence: 0.16
poseMsg: 
  header: 
    seq: 0
    stamp: 
      secs: 9876
      nsecs: 124509000
    frame_id: "xv_dev/map_optical_frame"
  pose: 
    position: 
      x: 0.0009635157809480826
      y: -0.003554077726356975
      z: -0.006259087834417105
    orientation: 
      x: 0.01040319950076869
      y: -0.5882214346944529
      z: 0.8084928822657295
      w: 0.01505245933010936
---
confidence: 0.16
poseMsg: 
  header: 
    seq: 0
    stamp: 
      secs: 9876
      nsecs: 126542000
    frame_id: "xv_dev/map_optical_frame"
  pose: 
    position: 
      x: 0.0009597973767322298
      y: -0.0035523067040945464
      z: -0.006260976917121962
    orientation: 
      x: 0.010404192582337575
      y: -0.588223218097633
      z: 0.808491579341756
      w: 0.015052063019129867
---
confidence: 0.16
poseMsg: 
  header: 
    seq: 0
    stamp: 
      secs: 9876
      nsecs: 128459000
    frame_id: "xv_dev/map_optical_frame"
  pose: 
    position: 
      x: 0.0009709114660081948
      y: -0.0035566335459267136
      z: -0.006251321173245227
    orientation: 
      x: 0.010406134684623484
      y: -0.5882218249553542
      z: 0.8084926012657586
      w: 0.01505027261313569
---
confidence: 0.16
poseMsg: 
  header: 
    seq: 0
    stamp: 
      secs: 9876
      nsecs: 130478000
    frame_id: "xv_dev/map_optical_frame"
  pose: 
    position: 
      x: 0.0009743823482758038
      y: -0.0035578423873738386
      z: -0.006247501116302783
    orientation: 
      x: 0.010413195335975355
      y: -0.5882237180280471
      z: 0.8084912097331967
      w: 0.015046152212180412
---
confidence: 0.16
poseMsg: 
  header: 
    seq: 0
    stamp: 
      secs: 9876
      nsecs: 132492000
    frame_id: "xv_dev/map_optical_frame"
  pose: 
    position: 
      x: 0.0009779100945724619
      y: -0.003558881569894365
      z: -0.006243560405796509
    orientation: 
      x: 0.010410139704127283
      y: -0.5882219408458234
      z: 0.808492532094692
      w: 0.0150466888753419
---
confidence: 0.16
poseMsg: 
  header: 
    seq: 0
    stamp: 
      secs: 9876
      nsecs: 134545000
    frame_id: "xv_dev/map_optical_frame"
  pose: 
    position: 
      x: 0.000981392489227898
      y: -0.003559769799383067
      z: -0.00623960295780563
    orientation: 
      x: 0.010413635649410644
      y: -0.5882224808226182
      z: 0.808492160505927
      w: 0.015043126270460415
---
confidence: 0.16
poseMsg: 
  header: 
    seq: 0
    stamp: 
      secs: 9876
      nsecs: 136494000
    frame_id: "xv_dev/map_optical_frame"
  pose: 
    position: 
      x: 0.0009850435256268508
      y: -0.003560605797019032
      z: -0.0062354881422740675
    orientation: 
      x: 0.010411472256168727
      y: -0.5882185298193824
      z: 0.8084950141881982
      w: 0.015045745428294746
---
confidence: 0.16
poseMsg: 
  header: 
    seq: 0
    stamp: 
      secs: 9876
      nsecs: 138554000
    frame_id: "xv_dev/map_optical_frame"
  pose: 
    position: 
      x: 0.000988201866872506
      y: -0.0035612963732156912
      z: -0.006231310374206048
    orientation: 
      x: 0.010410756293509658
      y: -0.5882171980405903
      z: 0.8084959763153012
      w: 0.0150466064189452
---
confidence: 0.21
poseMsg: 
  header: 
    seq: 0
    stamp: 
      secs: 9876
      nsecs: 140524000
    frame_id: "xv_dev/map_optical_frame"
  pose: 
    position: 
      x: 0.0010105819768072705
      y: -0.0035718388282553444
      z: -0.00621218210317021
    orientation: 
      x: 0.010393995599885247
      y: -0.5882187744439067
      z: 0.8084947662404807
      w: 0.015061580561578585
---
confidence: 0.21
poseMsg: 
  header: 
    seq: 0
    stamp: 
      secs: 9876
      nsecs: 142581000
    frame_id: "xv_dev/map_optical_frame"
  pose: 
    position: 
      x: 0.0010214517880452064
      y: -0.00357911249352454
      z: -0.006205355944992504
    orientation: 
      x: 0.010396264548674582
      y: -0.5882200936333882
      z: 0.8084937518222528
      w: 0.015062947713646704
---
confidence: 0.21
poseMsg: 
  header: 
    seq: 0
    stamp: 
      secs: 9876
      nsecs: 144481000
    frame_id: "xv_dev/map_optical_frame"
  pose: 
    position: 
      x: 0.0010326004685830466
      y: -0.0035865817222530297
      z: -0.006198245283329955
    orientation: 
      x: 0.010397380576900574
      y: -0.5882175983236778
      z: 0.8084955749772011
      w: 0.01506176423374365
---
confidence: 0.21
poseMsg: 
  header: 
    seq: 0
    stamp: 
      secs: 9876
      nsecs: 146447000
    frame_id: "xv_dev/map_optical_frame"
  pose: 
    position: 
      x: 0.0010297262141326998
      y: -0.003585307816215714
      z: -0.006198803664830612
    orientation: 
      x: 0.010398392562720626
      y: -0.5882159377912319
      z: 0.8084967776974833
      w: 0.015061354964410682
---
confidence: 0.21
poseMsg: 
  header: 
    seq: 0
    stamp: 
      secs: 9876
      nsecs: 148491000
    frame_id: "xv_dev/map_optical_frame"
  pose: 
    position: 
      x: 0.001054495642081201
      y: -0.003601664464150202
      z: -0.0061836504892303894
    orientation: 
      x: 0.010393634888306176
      y: -0.5882166948439079
      z: 0.8084962917870513
      w: 0.01506115624343416
---
confidence: 0.21
poseMsg: 
  header: 
    seq: 0
    stamp: 
      secs: 9876
      nsecs: 150537000
    frame_id: "xv_dev/map_optical_frame"
  pose: 
    position: 
      x: 0.0010513859546850874
      y: -0.003600586103346391
      z: -0.006183961546377578
    orientation: 
      x: 0.010393777503711928
      y: -0.5882167153009867
      z: 0.8084962707606573
      w: 0.015061387582676236
---
confidence: 0.21
poseMsg: 
  header: 
    seq: 0
    stamp: 
      secs: 9876
      nsecs: 152487000
    frame_id: "xv_dev/map_optical_frame"
  pose: 
    position: 
      x: 0.0010484221763746682
      y: -0.003599558340116835
      z: -0.00618425800846804
    orientation: 
      x: 0.010393913427485028
      y: -0.5882167347981615
      z: 0.8084962507207829
      w: 0.015061608067290098
---
confidence: 0.21
poseMsg: 
  header: 
    seq: 0
    stamp: 
      secs: 9876
      nsecs: 154571000
    frame_id: "xv_dev/map_optical_frame"
  pose: 
    position: 
      x: 0.0010724305570206788
      y: -0.003616515915674163
      z: -0.0061686895764016475
    orientation: 
      x: 0.010383549377478478
      y: -0.5882192266608534
      z: 0.8084941253210399
      w: 0.015085509944446041
---
confidence: 0.21
poseMsg: 
  header: 
    seq: 0
    stamp: 
      secs: 9876
      nsecs: 156491000
    frame_id: "xv_dev/map_optical_frame"
  pose: 
    position: 
      x: 0.0010830852575185194
      y: -0.003624580571260782
      z: -0.006160937432232962
    orientation: 
      x: 0.01038825752269019
      y: -0.5882164386594535
      z: 0.8084961275381999
      w: 0.015083671709855842
---
confidence: 0.21
poseMsg: 
  header: 
    seq: 0
    stamp: 
      secs: 9876
      nsecs: 158549000
    frame_id: "xv_dev/map_optical_frame"
  pose: 
    position: 
      x: 0.001093399897050352
      y: -0.0036326680460196247
      z: -0.006152985048741318
    orientation: 
      x: 0.010376593392653831
      y: -0.5882173729798696
      z: 0.8084954784501189
      w: 0.01509005500394179
---
confidence: 0.21
poseMsg: 
  header: 
    seq: 0
    stamp: 
      secs: 9876
      nsecs: 160490000
    frame_id: "xv_dev/map_optical_frame"
  pose: 
    position: 
      x: 0.001103946262070561
      y: -0.003640736419473919
      z: -0.006144981556113019
    orientation: 
      x: 0.010382633125364351
      y: -0.5882199118755514
      z: 0.8084936538185117
      w: 0.015084692167208721
---
confidence: 0.21
poseMsg: 
  header: 
    seq: 0
    stamp: 
      secs: 9876
      nsecs: 162539000
    frame_id: "xv_dev/map_optical_frame"
  pose: 
    position: 
      x: 0.0011003364815650666
      y: -0.0036400637330366555
      z: -0.0061446173799828115
    orientation: 
      x: 0.010362017877246091
      y: -0.588216545664789
      z: 0.8084961408958553
      w: 0.015096825768634053
---
confidence: 0.21
poseMsg: 
  header: 
    seq: 0
    stamp: 
      secs: 9876
      nsecs: 164473000
    frame_id: "xv_dev/map_optical_frame"
  pose: 
    position: 
      x: 0.001096923955503932
      y: -0.003639428577299973
      z: -0.006144275735886914
    orientation: 
      x: 0.010348475869627166
      y: -0.5882147222413049
      z: 0.8084974984789803
      w: 0.015104454279312325
---
confidence: 0.21
poseMsg: 
  header: 
    seq: 0
    stamp: 
      secs: 9876
      nsecs: 166576000
    frame_id: "xv_dev/map_optical_frame"
  pose: 
    position: 
      x: 0.0010929843163587265
      y: -0.003638831856924211
      z: -0.006143668812015229
    orientation: 
      x: 0.010355651592762664
      y: -0.5882184240335014
      z: 0.8084947719329182
      w: 0.015101319970657867
---
confidence: 0.23
poseMsg: 
  header: 
    seq: 0
    stamp: 
      secs: 9876
      nsecs: 168513000
    frame_id: "xv_dev/map_optical_frame"
  pose: 
    position: 
      x: 0.0010846520039671933
      y: -0.0036365039201927195
      z: -0.006153454759566782
    orientation: 
      x: 0.010350894556396317
      y: -0.5882239688863281
      z: 0.8084905970788018
      w: 0.015112109209027738
---
confidence: 0.23
poseMsg: 
  header: 
    seq: 0
    stamp: 
      secs: 9876
      nsecs: 170565000
    frame_id: "xv_dev/map_optical_frame"
  pose: 
    position: 
      x: 0.001094624128290557
      y: -0.0036432154942809777
      z: -0.006150283138348382
    orientation: 
      x: 0.010351444817476161
      y: -0.5882191892327041
      z: 0.8084940775212736
      w: 0.015111572443678067
---
confidence: 0.23
poseMsg: 
  header: 
    seq: 0
    stamp: 
      secs: 9876
      nsecs: 172476000
    frame_id: "xv_dev/map_optical_frame"
  pose: 
    position: 
      x: 0.00110472163819889
      y: -0.003650006431876927
      z: -0.006147116587467677
    orientation: 
      x: 0.010345575142402821
      y: -0.5882216656753081
      z: 0.8084923965151355
      w: 0.015109132418389869
---
confidence: 0.23
poseMsg: 
  header: 
    seq: 0
    stamp: 
      secs: 9876
      nsecs: 174575000
    frame_id: "xv_dev/map_optical_frame"
  pose: 
    position: 
      x: 0.001114545326075118
      y: -0.0036569312079163404
      z: -0.00614381281354153
    orientation: 
      x: 0.01034896326741601
      y: -0.5882226720229637
      z: 0.8084916957906894
      w: 0.01510512876589877
---
confidence: 0.23
poseMsg: 
  header: 
    seq: 0
    stamp: 
      secs: 9876
      nsecs: 176458000
    frame_id: "xv_dev/map_optical_frame"
  pose: 
    position: 
      x: 0.0011246241857083518
      y: -0.0036637873582674968
      z: -0.00614052632573775
    orientation: 
      x: 0.010350039386022223
      y: -0.5882223949292105
      z: 0.8084919063497884
      w: 0.015103911924440255
---
confidence: 0.23
poseMsg: 
  header: 
    seq: 0
    stamp: 
      secs: 9876
      nsecs: 178466000
    frame_id: "xv_dev/map_optical_frame"
  pose: 
    position: 
      x: 0.0011220754328840378
      y: -0.003664133981190434
      z: -0.006139336061237592
    orientation: 
      x: 0.010351275201565969
      y: -0.5882224541099788
      z: 0.8084918827975429
      w: 0.01510202082848903
---
confidence: 0.24
poseMsg: 
  header: 
    seq: 0
    stamp: 
      secs: 9876
      nsecs: 180524000
    frame_id: "xv_dev/map_optical_frame"
  pose: 
    position: 
      x: 0.001190471422192748
      y: -0.0037009004869510208
      z: -0.0061235057249084445
    orientation: 
      x: 0.010344526959166572
      y: -0.5882244268067688
      z: 0.808490434532494
      w: 0.015107340579419067
---
confidence: 0.24
poseMsg: 
  header: 
    seq: 0
    stamp: 
      secs: 9876
      nsecs: 182568000
    frame_id: "xv_dev/map_optical_frame"
  pose: 
    position: 
      x: 0.0011891675606373433
      y: -0.0037012939560012712
      z: -0.006122258748758978
    orientation: 
      x: 0.01034578156544182
      y: -0.5882244880110632
      z: 0.8084904098579546
      w: 0.015105418753666755
---
confidence: 0.24
poseMsg: 
  header: 
    seq: 0
    stamp: 
      secs: 9876
      nsecs: 184453000
    frame_id: "xv_dev/map_optical_frame"
  pose: 
    position: 
      x: 0.0012265060744628734
      y: -0.003708650399280589
      z: -0.006118411013493737
    orientation: 
      x: 0.010359620386374054
      y: -0.5882240577812123
      z: 0.8084906745443938
      w: 0.015098519387354077
---
confidence: 0.24
poseMsg: 
  header: 
    seq: 0
    stamp: 
      secs: 9876
      nsecs: 186551000
    frame_id: "xv_dev/map_optical_frame"
  pose: 
    position: 
      x: 0.0012444752259820231
      y: -0.003712587415220997
      z: -0.006115840837883104
    orientation: 
      x: 0.010356377026978541
      y: -0.5882235869535279
      z: 0.8084910338856948
      w: 0.01509984546030001
---
confidence: 0.24
poseMsg: 
  header: 
    seq: 0
    stamp: 
      secs: 9876
      nsecs: 188493000
    frame_id: "xv_dev/map_optical_frame"
  pose: 
    position: 
      x: 0.001262666140574718
      y: -0.0037164015204930894
      z: -0.00611325305168967
    orientation: 
      x: 0.010344507550855146
      y: -0.5882233653822049
      z: 0.8084911090983605
      w: 0.015112580552320787
---
confidence: 0.24
poseMsg: 
  header: 
    seq: 0
    stamp: 
      secs: 9876
      nsecs: 190540000
    frame_id: "xv_dev/map_optical_frame"
  pose: 
    position: 
      x: 0.0012614953407998355
      y: -0.0037163403349940163
      z: -0.006112088220226489
    orientation: 
      x: 0.010334465679328884
      y: -0.5882231894640335
      z: 0.808491172134436
      w: 0.015122922225959177
---
confidence: 0.24
poseMsg: 
  header: 
    seq: 0
    stamp: 
      secs: 9876
      nsecs: 192462000
    frame_id: "xv_dev/map_optical_frame"
  pose: 
    position: 
      x: 0.0012990226212897143
      y: -0.0037238479095333993
      z: -0.006107821309527443
    orientation: 
      x: 0.010342666025535888
      y: -0.5882276769867054
      z: 0.8084879969337142
      w: 0.015112514698186207
---
confidence: 0.24
poseMsg: 
  header: 
    seq: 0
    stamp: 
      secs: 9876
      nsecs: 194570000
    frame_id: "xv_dev/map_optical_frame"
  pose: 
    position: 
      x: 0.0013170340048866897
      y: -0.003727636087372812
      z: -0.006105030238131739
    orientation: 
      x: 0.010336620125250195
      y: -0.5882235443760728
      z: 0.808491087139472
      w: 0.015112185221052453
---
confidence: 0.24
poseMsg: 
  header: 
    seq: 0
    stamp: 
      secs: 9876
      nsecs: 196490000
    frame_id: "xv_dev/map_optical_frame"
  pose: 
    position: 
      x: 0.0013352068344800105
      y: -0.0037314839643607933
      z: -0.006102425573183994
    orientation: 
      x: 0.010339236984615172
      y: -0.5882286013016732
      z: 0.8084873835482083
      w: 0.0151116985382077
---
confidence: 0.24
poseMsg: 
  header: 
    seq: 0
    stamp: 
      secs: 9876
      nsecs: 198539000
    frame_id: "xv_dev/map_optical_frame"
  pose: 
    position: 
      x: 0.0013533155852779935
      y: -0.0037353349852181058
      z: -0.006099853869002253
    orientation: 
      x: 0.010335942438855663
      y: -0.5882277751789577
      z: 0.8084879755481512
      w: 0.01511443667657908
---
confidence: 0.23
poseMsg: 
  header: 
    seq: 0
    stamp: 
      secs: 9876
      nsecs: 200484000
    frame_id: "xv_dev/map_optical_frame"
  pose: 
    position: 
      x: 0.0013007228199923301
      y: -0.003704472780171684
      z: -0.006109049835128923
    orientation: 
      x: 0.010327748668738056
      y: -0.5882246585994586
      z: 0.8084902520255975
      w: 0.0151195569596366
---
confidence: 0.23
poseMsg: 
  header: 
    seq: 0
    stamp: 
      secs: 9876
      nsecs: 202563000
    frame_id: "xv_dev/map_optical_frame"
  pose: 
    position: 
      x: 0.001335305974451009
      y: -0.00369712257190972
      z: -0.006109272269438304
    orientation: 
      x: 0.010334632046798084
      y: -0.5882250040077688
      z: 0.8084899692035215
      w: 0.015116538555200293
---
confidence: 0.23
poseMsg: 
  header: 
    seq: 0
    stamp: 
      secs: 9876
      nsecs: 204487000
    frame_id: "xv_dev/map_optical_frame"
  pose: 
    position: 
      x: 0.001352902381623572
      y: -0.0036933375408252857
      z: -0.006108774512706509
    orientation: 
      x: 0.010333347821865436
      y: -0.5882256348768431
      z: 0.8084895092277768
      w: 0.01511746887676802
---
confidence: 0.23
poseMsg: 
  header: 
    seq: 0
    stamp: 
      secs: 9876
      nsecs: 206552000
    frame_id: "xv_dev/map_optical_frame"
  pose: 
    position: 
      x: 0.00137051178908163
      y: -0.003689681973554014
      z: -0.006108113796014185
    orientation: 
      x: 0.010336552449148429
      y: -0.5882246240736835
      z: 0.8084902106122904
      w: 0.015117098300213575
---
confidence: 0.23
poseMsg: 
  header: 
    seq: 0
    stamp: 
      secs: 9876
      nsecs: 208481000
    frame_id: "xv_dev/map_optical_frame"
  pose: 
    position: 
      x: 0.0013881504507875814
      y: -0.003686140217771995
      z: -0.006107548467593058
    orientation: 
      x: 0.01033310172403909
      y: -0.5882247824355149
      z: 0.8084900920077076
      w: 0.015119638319236548
---
confidence: 0.23
poseMsg: 
  header: 
    seq: 0
    stamp: 
      secs: 9876
      nsecs: 210556000
    frame_id: "xv_dev/map_optical_frame"
  pose: 
    position: 
      x: 0.0013889863785856481
      y: -0.0036860864465532795
      z: -0.006106350850712689
    orientation: 
      x: 0.010330555328836807
      y: -0.5882247634947656
      z: 0.8084900972754198
      w: 0.015121833413692866
---
confidence: 0.23
poseMsg: 
  header: 
    seq: 0
    stamp: 
      secs: 9876
      nsecs: 212485000
    frame_id: "xv_dev/map_optical_frame"
  pose: 
    position: 
      x: 0.0014069070378537009
      y: -0.0036827285015001254
      z: -0.0061057557831651075
    orientation: 
      x: 0.01034794552561147
      y: -0.5882251407326565
      z: 0.8084899381602857
      w: 0.015103765328784515
---
confidence: 0.23
poseMsg: 
  header: 
    seq: 0
    stamp: 
      secs: 9876
      nsecs: 214562000
    frame_id: "xv_dev/map_optical_frame"
  pose: 
    position: 
      x: 0.0014078943085457677
      y: -0.0036827753949876005
      z: -0.006104531006488345
    orientation: 
      x: 0.01035482810845854
      y: -0.5882253101652031
      z: 0.8084898650125351
      w: 0.015096363402887579
---
confidence: 0.23
poseMsg: 
  header: 
    seq: 0
    stamp: 
      secs: 9876
      nsecs: 216482000
    frame_id: "xv_dev/map_optical_frame"
  pose: 
    position: 
      x: 0.0014427680325037097
      y: -0.0036755759072581847
      z: -0.0061048876709828455
    orientation: 
      x: 0.01034369856142593
      y: -0.5882251110046274
      z: 0.8084899394782006
      w: 0.015107761127442144
---
confidence: 0.23
poseMsg: 
  header: 
    seq: 0
    stamp: 
      secs: 9876
      nsecs: 218537000
    frame_id: "xv_dev/map_optical_frame"
  pose: 
    position: 
      x: 0.001460892462074493
      y: -0.0036720933635557814
      z: -0.006104509160243606
    orientation: 
      x: 0.010351076588031438
      y: -0.5882270884297026
      z: 0.8084884725091565
      w: 0.015104220300259914
---
confidence: 0.23
poseMsg: 
  header: 
    seq: 0
    stamp: 
      secs: 9876
      nsecs: 220492000
    frame_id: "xv_dev/map_optical_frame"
  pose: 
    position: 
      x: 0.0014619630224515878
      y: -0.003672164471070572
      z: -0.006103510704711678
    orientation: 
      x: 0.010341390413843255
      y: -0.5882223014224907
      z: 0.8084919940434092
      w: 0.015108782920314765
---
confidence: 0.23
poseMsg: 
  header: 
    seq: 0
    stamp: 
      secs: 9876
      nsecs: 222453000
    frame_id: "xv_dev/map_optical_frame"
  pose: 
    position: 
      x: 0.0014629659932655823
      y: -0.0036722702793132852
      z: -0.006102672550916502
    orientation: 
      x: 0.010343828090050204
      y: -0.5882225100394887
      z: 0.8084918623262216
      w: 0.015106040369643369
---
confidence: 0.23
poseMsg: 
  header: 
    seq: 0
    stamp: 
      secs: 9876
      nsecs: 224485000
    frame_id: "xv_dev/map_optical_frame"
  pose: 
    position: 
      x: 0.001478928818841353
      y: -0.003667678138975165
      z: -0.006103789683536475
    orientation: 
      x: 0.010338907966220593
      y: -0.5882184527424187
      z: 0.8084949518341207
      w: 0.015102042716413664
---
confidence: 0.23
poseMsg: 
  header: 
    seq: 0
    stamp: 
      secs: 9876
      nsecs: 226542000
    frame_id: "xv_dev/map_optical_frame"
  pose: 
    position: 
      x: 0.0014945834395448927
      y: -0.0036663475816223123
      z: -0.00610390585236761
    orientation: 
      x: 0.010327807984065445
      y: -0.5882164313607231
      z: 0.8084963776290235
      w: 0.015112035611784168
---
confidence: 0.23
poseMsg: 
  header: 
    seq: 0
    stamp: 
      secs: 9876
      nsecs: 228487000
    frame_id: "xv_dev/map_optical_frame"
  pose: 
    position: 
      x: 0.0015099622593503137
      y: -0.0036649084489088248
      z: -0.006104259956224109
    orientation: 
      x: 0.010328211150182823
      y: -0.5882174904254721
      z: 0.8084956772484284
      w: 0.015108007237437097
---
confidence: 0.23
poseMsg: 
  header: 
    seq: 0
    stamp: 
      secs: 9876
      nsecs: 230440000
    frame_id: "xv_dev/map_optical_frame"
  pose: 
    position: 
      x: 0.0015254979386606785
      y: -0.003663544296084445
      z: -0.006104814376660873
    orientation: 
      x: 0.010310791108035509
      y: -0.5882100937088391
      z: 0.8085010346591518
      w: 0.015121183846865038
---
confidence: 0.23
poseMsg: 
  header: 
    seq: 0
    stamp: 
      secs: 9876
      nsecs: 232441000
    frame_id: "xv_dev/map_optical_frame"
  pose: 
    position: 
      x: 0.001541127728169094
      y: -0.0036623248463272676
      z: -0.006105313529585948
    orientation: 
      x: 0.010323785354626107
      y: -0.5882175493845269
      z: 0.8084956402292423
      w: 0.015110717468256934
---
confidence: 0.23
poseMsg: 
  header: 
    seq: 0
    stamp: 
      secs: 9876
      nsecs: 234636000
    frame_id: "xv_dev/map_optical_frame"
  pose: 
    position: 
      x: 0.0015572605354790552
      y: -0.0036609725162303824
      z: -0.006105962718794974
    orientation: 
      x: 0.010317827870379225
      y: -0.5882119928529984
      z: 0.808499697783909
      w: 0.015113986084213238
---
confidence: 0.23
poseMsg: 
  header: 
    seq: 0
    stamp: 
      secs: 9876
      nsecs: 236482000
    frame_id: "xv_dev/map_optical_frame"
  pose: 
    position: 
      x: 0.001573004794454792
      y: -0.003659573475105182
      z: -0.0061068515932357435
    orientation: 
      x: 0.010315685034561206
      y: -0.5882175203106694
      z: 0.8084956918958933
      w: 0.01511461635967327
---
confidence: 0.23
poseMsg: 
  header: 
    seq: 0
    stamp: 
      secs: 9876
      nsecs: 238564000
    frame_id: "xv_dev/map_optical_frame"
  pose: 
    position: 
      x: 0.0015890744125548252
      y: -0.003657857573158376
      z: -0.006107470059785453
    orientation: 
      x: 0.01032142156407667
      y: -0.5882175544509844
      z: 0.8084955877947037
      w: 0.015114939933088824
---
confidence: 0.22
poseMsg: 
  header: 
    seq: 0
    stamp: 
      secs: 9876
      nsecs: 240488000
    frame_id: "xv_dev/map_optical_frame"
  pose: 
    position: 
      x: 0.001607906697320935
      y: -0.0036508205954010387
      z: -0.0061104782345935875
    orientation: 
      x: 0.010314882382385666
      y: -0.5882082469165129
      z: 0.8085024189353126
      w: 0.015116217670863822
---
confidence: 0.22
poseMsg: 
  header: 
    seq: 0
    stamp: 
      secs: 9876
      nsecs: 242564000
    frame_id: "xv_dev/map_optical_frame"
  pose: 
    position: 
      x: 0.0016173980052459186
      y: -0.0036444881286913904
      z: -0.006112525280726873
    orientation: 
      x: 0.01031459942231244
      y: -0.5882091959501523
      z: 0.8085017731062852
      w: 0.015114024034318854
---
confidence: 0.22
poseMsg: 
  header: 
    seq: 0
    stamp: 
      secs: 9876
      nsecs: 244492000
    frame_id: "xv_dev/map_optical_frame"
  pose: 
    position: 
      x: 0.0016265048261292043
      y: -0.0036383265396833534
      z: -0.006114533896440284
    orientation: 
      x: 0.010317668767867447
      y: -0.5882110250150052
      z: 0.8085004629032557
      w: 0.015110832118029847
---
confidence: 0.22
poseMsg: 
  header: 
    seq: 0
    stamp: 
      secs: 9876
      nsecs: 246559000
    frame_id: "xv_dev/map_optical_frame"
  pose: 
    position: 
      x: 0.001635752381922959
      y: -0.0036319713711475965
      z: -0.006116643756876741
    orientation: 
      x: 0.010318804562561042
      y: -0.5882136572885809
      z: 0.8084984670118285
      w: 0.015114380278373524
---
confidence: 0.22
poseMsg: 
  header: 
    seq: 0
    stamp: 
      secs: 9876
      nsecs: 248483000
    frame_id: "xv_dev/map_optical_frame"
  pose: 
    position: 
      x: 0.0016448379241616943
      y: -0.0036254390235112457
      z: -0.006118815721584879
    orientation: 
      x: 0.010320061425191485
      y: -0.5882101865796178
      z: 0.8085010127033829
      w: 0.015112418530473994
---
confidence: 0.22
poseMsg: 
  header: 
    seq: 0
    stamp: 
      secs: 9876
      nsecs: 250556000
    frame_id: "xv_dev/map_optical_frame"
  pose: 
    position: 
      x: 0.0016543556725379263
      y: -0.0036187093997780704
      z: -0.006120863849989461
    orientation: 
      x: 0.010319827491452674
      y: -0.5882093460102968
      z: 0.808501667741494
      w: 0.015110251023487961
---
confidence: 0.22
poseMsg: 
  header: 
    seq: 0
    stamp: 
      secs: 9876
      nsecs: 252488000
    frame_id: "xv_dev/map_optical_frame"
  pose: 
    position: 
      x: 0.0016634805222404563
      y: -0.0036117107721190377
      z: -0.0061226815784762465
    orientation: 
      x: 0.010323097160511899
      y: -0.5882119902535369
      z: 0.8084997156895023
      w: 0.01510953066994588
---
confidence: 0.22
poseMsg: 
  header: 
    seq: 0
    stamp: 
      secs: 9876
      nsecs: 254547000
    frame_id: "xv_dev/map_optical_frame"
  pose: 
    position: 
      x: 0.0016667985109851883
      y: -0.003610194943503059
      z: -0.006122826043052909
    orientation: 
      x: 0.010324988713832904
      y: -0.5882129232091836
      z: 0.808499032226787
      w: 0.015108489871576081
---
confidence: 0.22
poseMsg: 
  header: 
    seq: 0
    stamp: 
      secs: 9876
      nsecs: 256493000
    frame_id: "xv_dev/map_optical_frame"
  pose: 
    position: 
      x: 0.001681873834620236
      y: -0.003597475367276193
      z: -0.006125668394289114
    orientation: 
      x: 0.010313709952916058
      y: -0.5882050298222964
      z: 0.80850470888729
      w: 0.015119721754102283
---
confidence: 0.22
poseMsg: 
  header: 
    seq: 0
    stamp: 
      secs: 9876
      nsecs: 258538000
    frame_id: "xv_dev/map_optical_frame"
  pose: 
    position: 
      x: 0.0016850385076499898
      y: -0.0035956131081435663
      z: -0.006125362865875386
    orientation: 
      x: 0.01031752595661434
      y: -0.5882086807005815
      z: 0.8085020941222969
      w: 0.015114906766531282
---
confidence: 0.22
poseMsg: 
  header: 
    seq: 0
    stamp: 
      secs: 9876
      nsecs: 260484000
    frame_id: "xv_dev/map_optical_frame"
  pose: 
    position: 
      x: 0.0016881313168103926
      y: -0.0035936718537918143
      z: -0.0061248579583464665
    orientation: 
      x: 0.010297157539125178
      y: -0.5882108812481622
      z: 0.8085004455276389
      w: 0.015131335353125202
---
confidence: 0.21
poseMsg: 
  header: 
    seq: 0
    stamp: 
      secs: 9876
      nsecs: 262592000
    frame_id: "xv_dev/map_optical_frame"
  pose: 
    position: 
      x: 0.001689151014901897
      y: -0.0035863483819818845
      z: -0.006127131104701175
    orientation: 
      x: 0.010303139880878769
      y: -0.5882093599163876
      z: 0.8085015758106665
      w: 0.015126008300348314
---
confidence: 0.21
poseMsg: 
  header: 
    seq: 0
    stamp: 
      secs: 9876
      nsecs: 264477000
    frame_id: "xv_dev/map_optical_frame"
  pose: 
    position: 
      x: 0.001703181909911216
      y: -0.003579090564937771
      z: -0.006129872014830699
    orientation: 
      x: 0.01028637092624792
      y: -0.5882123797014714
      z: 0.8084993339337861
      w: 0.015139813995167182
---
confidence: 0.21
poseMsg: 
  header: 
    seq: 0
    stamp: 
      secs: 9876
      nsecs: 266553000
    frame_id: "xv_dev/map_optical_frame"
  pose: 
    position: 
      x: 0.0017175449816401974
      y: -0.0035716256139700754
      z: -0.006132509909628575
    orientation: 
      x: 0.010293602635939324
      y: -0.5882118058934659
      z: 0.8084997514473582
      w: 0.015134895505601216
---
confidence: 0.21
poseMsg: 
  header: 
    seq: 0
    stamp: 
      secs: 9876
      nsecs: 268456000
    frame_id: "xv_dev/map_optical_frame"
  pose: 
    position: 
      x: 0.001731378579389835
      y: -0.003564169776243835
      z: -0.00613517727610387
    orientation: 
      x: 0.010291642052445368
      y: -0.5882159316623808
      z: 0.8084967894539105
      w: 0.015134109991184237
---
confidence: 0.21
poseMsg: 
  header: 
    seq: 0
    stamp: 
      secs: 9876
      nsecs: 270548000
    frame_id: "xv_dev/map_optical_frame"
  pose: 
    position: 
      x: 0.0017455368380052474
      y: -0.0035565784130611455
      z: -0.006137741718833446
    orientation: 
      x: 0.01028815819370597
      y: -0.588211880021404
      z: 0.8084997052437822
      w: 0.015138184285717957
---
confidence: 0.21
poseMsg: 
  header: 
    seq: 0
    stamp: 
      secs: 9876
      nsecs: 272453000
    frame_id: "xv_dev/map_optical_frame"
  pose: 
    position: 
      x: 0.0017594060329674057
      y: -0.003549260395596788
      z: -0.006140427812925884
    orientation: 
      x: 0.01028908362129403
      y: -0.5882110874499109
      z: 0.8085002767818903
      w: 0.015137826888911314
---
confidence: 0.21
poseMsg: 
  header: 
    seq: 0
    stamp: 
      secs: 9876
      nsecs: 274479000
    frame_id: "xv_dev/map_optical_frame"
  pose: 
    position: 
      x: 0.0017734434623277468
      y: -0.003541826669575434
      z: -0.006142890175767976
    orientation: 
      x: 0.010286705097435414
      y: -0.5882118166382366
      z: 0.8084997379353879
      w: 0.015139888502803399
---
confidence: 0.21
poseMsg: 
  header: 
    seq: 0
    stamp: 
      secs: 9876
      nsecs: 276444000
    frame_id: "xv_dev/map_optical_frame"
  pose: 
    position: 
      x: 0.0017874647462455325
      y: -0.003534557362859816
      z: -0.006145267755916486
    orientation: 
      x: 0.010283998269257329
      y: -0.5882102180041447
      z: 0.8085009383877924
      w: 0.01513973055434695
---
confidence: 0.21
poseMsg: 
  header: 
    seq: 0
    stamp: 
      secs: 9876
      nsecs: 278479000
    frame_id: "xv_dev/map_optical_frame"
  pose: 
    position: 
      x: 0.001801475993168918
      y: -0.0035275433098836523
      z: -0.006147436586869252
    orientation: 
      x: 0.010283339818281204
      y: -0.5882109786127079
      z: 0.8085004032974633
      w: 0.01513920174863807
---
confidence: 0.22
poseMsg: 
  header: 
    seq: 0
    stamp: 
      secs: 9876
      nsecs: 280513000
    frame_id: "xv_dev/map_optical_frame"
  pose: 
    position: 
      x: 0.0018094310715921675
      y: -0.0035258746717614065
      z: -0.006146901146953645
    orientation: 
      x: 0.010279293567815553
      y: -0.5882129967605483
      z: 0.8084988004802294
      w: 0.015149131586878485
---
confidence: 0.22
poseMsg: 
  header: 
    seq: 0
    stamp: 
      secs: 9876
      nsecs: 282579000
    frame_id: "xv_dev/map_optical_frame"
  pose: 
    position: 
      x: 0.0018265862776869403
      y: -0.0035293080390170926
      z: -0.006145106903785711
    orientation: 
      x: 0.010290308816444228
      y: -0.588220736088008
      z: 0.8084931993187501
      w: 0.015140073842636756
---
confidence: 0.22
poseMsg: 
  header: 
    seq: 0
    stamp: 
      secs: 9876
      nsecs: 284448000
    frame_id: "xv_dev/map_optical_frame"
  pose: 
    position: 
      x: 0.0018555006700132172
      y: -0.0035379226512826487
      z: -0.006142853008183521
    orientation: 
      x: 0.010279197464322116
      y: -0.5882174193794416
      z: 0.8084955515931705
      w: 0.015150864405004395
---
confidence: 0.22
poseMsg: 
  header: 
    seq: 0
    stamp: 
      secs: 9876
      nsecs: 286574000
    frame_id: "xv_dev/map_optical_frame"
  pose: 
    position: 
      x: 0.0018726936891268343
      y: -0.0035414345096893354
      z: -0.006140959992638194
    orientation: 
      x: 0.010277957760782153
      y: -0.5882199543435739
      z: 0.8084936996827359
      w: 0.01515211106473089
---
confidence: 0.22
poseMsg: 
  header: 
    seq: 0
    stamp: 
      secs: 9876
      nsecs: 288474000
    frame_id: "xv_dev/map_optical_frame"
  pose: 
    position: 
      x: 0.001889491979503511
      y: -0.0035452496646842793
      z: -0.006139133741281715
    orientation: 
      x: 0.010274961502273049
      y: -0.5882169149412753
      z: 0.8084959921743136
      w: 0.015149811261268508
---
confidence: 0.22
poseMsg: 
  header: 
    seq: 0
    stamp: 
      secs: 9876
      nsecs: 290543000
    frame_id: "xv_dev/map_optical_frame"
  pose: 
    position: 
      x: 0.0019065761328545157
      y: -0.0035489678356238914
      z: -0.006137356986931431
    orientation: 
      x: 0.010282168186538335
      y: -0.588224079481051
      z: 0.8084907401061118
      w: 0.015147029372450048
---
confidence: 0.22
poseMsg: 
  header: 
    seq: 0
    stamp: 
      secs: 9876
      nsecs: 292483000
    frame_id: "xv_dev/map_optical_frame"
  pose: 
    position: 
      x: 0.0019110693202868522
      y: -0.0035478407762874944
      z: -0.006136226807424979
    orientation: 
      x: 0.010284742565834431
      y: -0.5882274772967497
      z: 0.8084882645093028
      w: 0.015145467119778815
---
confidence: 0.22
poseMsg: 
  header: 
    seq: 0
    stamp: 
      secs: 9876
      nsecs: 294477000
    frame_id: "xv_dev/map_optical_frame"
  pose: 
    position: 
      x: 0.0019398600581701192
      y: -0.003556675971455767
      z: -0.0061335927489394575
    orientation: 
      x: 0.01029399851300341
      y: -0.5882196791894734
      z: 0.8084939647079197
      w: 0.015137755441307717
---
confidence: 0.22
poseMsg: 
  header: 
    seq: 0
    stamp: 
      secs: 9876
      nsecs: 296586000
    frame_id: "xv_dev/map_optical_frame"
  pose: 
    position: 
      x: 0.0019567433427926293
      y: -0.0035604421002582297
      z: -0.006131516852741927
    orientation: 
      x: 0.010300950541910816
      y: -0.5882182508883446
      z: 0.8084950488520776
      w: 0.015130621981620093
---
confidence: 0.22
poseMsg: 
  header: 
    seq: 0
    stamp: 
      secs: 9876
      nsecs: 298584000
    frame_id: "xv_dev/map_optical_frame"
  pose: 
    position: 
      x: 0.0019611134473729573
      y: -0.003559463488351015
      z: -0.006130011016397444
    orientation: 
      x: 0.010297482665948767
      y: -0.588215756374934
      z: 0.8084968337888172
      w: 0.015134581479211383
---
confidence: 0.19
poseMsg: 
  header: 
    seq: 0
    stamp: 
      secs: 9876
      nsecs: 300576000
    frame_id: "xv_dev/map_optical_frame"
  pose: 
    position: 
      x: 0.001969302638717683
      y: -0.003571655711195485
      z: -0.006122498809862087
    orientation: 
      x: 0.010305554364540098
      y: -0.5882176139043153
      z: 0.8084953503956962
      w: 0.015136136580334376
---
confidence: 0.19
poseMsg: 
  header: 
    seq: 0
    stamp: 
      secs: 9876
      nsecs: 302551000
    frame_id: "xv_dev/map_optical_frame"
  pose: 
    position: 
      x: 0.0019754046257485797
      y: -0.003579864639103786
      z: -0.006116461916667748
    orientation: 
      x: 0.010306149508382259
      y: -0.5882167879951595
      z: 0.8084959455617113
      w: 0.01513603690955495
---
confidence: 0.19
poseMsg: 
  header: 
    seq: 0
    stamp: 
      secs: 9876
      nsecs: 304445000
    frame_id: "xv_dev/map_optical_frame"
  pose: 
    position: 
      x: 0.0019813804529309384
      y: -0.003588205656640445
      z: -0.006110660264006143
    orientation: 
      x: 0.010304983479348724
      y: -0.5882205248090068
      z: 0.8084933057516421
      w: 0.01513261589327492
---
confidence: 0.19
poseMsg: 
  header: 
    seq: 0
    stamp: 
      secs: 9876
      nsecs: 306473000
    frame_id: "xv_dev/map_optical_frame"
  pose: 
    position: 
      x: 0.001987599374638333
      y: -0.0035963918208479204
      z: -0.006104750899981493
    orientation: 
      x: 0.010306242560972342
      y: -0.5882222793930763
      z: 0.8084919881233861
      w: 0.015133952896297227
---
confidence: 0.19
poseMsg: 
  header: 
    seq: 0
    stamp: 
      secs: 9876
      nsecs: 308485000
    frame_id: "xv_dev/map_optical_frame"
  pose: 
    position: 
      x: 0.001993752672409362
      y: -0.003604319833087753
      z: -0.006098662382046748
    orientation: 
      x: 0.010303096645471514
      y: -0.5882255119358076
      z: 0.8084896702859377
      w: 0.015134277266906518
---
confidence: 0.19
poseMsg: 
  header: 
    seq: 0
    stamp: 
      secs: 9876
      nsecs: 310461000
    frame_id: "xv_dev/map_optical_frame"
  pose: 
    position: 
      x: 0.0019998610230301185
      y: -0.0036121552591661444
      z: -0.006092542750383759
    orientation: 
      x: 0.010301381414554805
      y: -0.588223599461563
      z: 0.8084910359054996
      w: 0.015136823906326896
---
confidence: 0.19
poseMsg: 
  header: 
    seq: 0
    stamp: 
      secs: 9876
      nsecs: 312487000
    frame_id: "xv_dev/map_optical_frame"
  pose: 
    position: 
      x: 0.0020043586718036088
      y: -0.0036117284040451773
      z: -0.006090672025189983
    orientation: 
      x: 0.01029976583714044
      y: -0.5882235900253023
      z: 0.8084910349912893
      w: 0.015138338754421608
---
confidence: 0.19
poseMsg: 
  header: 
    seq: 0
    stamp: 
      secs: 9876
      nsecs: 314563000
    frame_id: "xv_dev/map_optical_frame"
  pose: 
    position: 
      x: 0.0020089673188205155
      y: -0.0036112910144936654
      z: -0.006088755132049157
    orientation: 
      x: 0.010298110388562312
      y: -0.5882235803531695
      z: 0.8084910340504033
      w: 0.015139890987634548
---
confidence: 0.19
poseMsg: 
  header: 
    seq: 0
    stamp: 
      secs: 9876
      nsecs: 316483000
    frame_id: "xv_dev/map_optical_frame"
  pose: 
    position: 
      x: 0.0020163544299868536
      y: -0.0036270235477300857
      z: -0.006078089897374711
    orientation: 
      x: 0.01030001552447439
      y: -0.5882264243509542
      z: 0.8084890728546417
      w: 0.015132826907533847
---
confidence: 0.19
poseMsg: 
  header: 
    seq: 0
    stamp: 
      secs: 9876
      nsecs: 318579000
    frame_id: "xv_dev/map_optical_frame"
  pose: 
    position: 
      x: 0.0020228250864327262
      y: -0.0036344406449412316
      z: -0.006071748979801132
    orientation: 
      x: 0.010300495454963997
      y: -0.5882300546505458
      z: 0.8084864683288311
      w: 0.015130536291119582
---
confidence: 0.19
poseMsg: 
  header: 
    seq: 0
    stamp: 
      secs: 9876
      nsecs: 320488000
    frame_id: "xv_dev/map_optical_frame"
  pose: 
    position: 
      x: 0.002028861439470707
      y: -0.0036416335605410095
      z: -0.006065326918502277
    orientation: 
      x: 0.01029901644491241
      y: -0.5882287743251271
      z: 0.8084873744961213
      w: 0.015132897828222153
---
confidence: 0.19
poseMsg: 
  header: 
    seq: 0
    stamp: 
      secs: 9876
      nsecs: 322559000
    frame_id: "xv_dev/map_optical_frame"
  pose: 
    position: 
      x: 0.002033759628653276
      y: -0.003640450996100228
      z: -0.006062854168567714
    orientation: 
      x: 0.010297183295812803
      y: -0.5882287952472468
      z: 0.80848739340036
      w: 0.015132322059790735
---
confidence: 0.2
poseMsg: 
  header: 
    seq: 0
    stamp: 
      secs: 9876
      nsecs: 324520000
    frame_id: "xv_dev/map_optical_frame"
  pose: 
    position: 
      x: 0.002033072880121005
      y: -0.0036474802648339528
      z: -0.006063945930881371
    orientation: 
      x: 0.01030145522671646
      y: -0.5882262990362985
      z: 0.8084888828188473
      w: 0.015146864384682263
---
confidence: 0.2
poseMsg: 
  header: 
    seq: 0
    stamp: 
      secs: 9876
      nsecs: 326547000
    frame_id: "xv_dev/map_optical_frame"
  pose: 
    position: 
      x: 0.002038252770110159
      y: -0.0036597407066031444
      z: -0.006062630947882639
    orientation: 
      x: 0.010284140067545624
      y: -0.5882197548925923
      z: 0.8084937631962759
      w: 0.015152270126246507
---
confidence: 0.2
poseMsg: 
  header: 
    seq: 0
    stamp: 
      secs: 9876
      nsecs: 328520000
    frame_id: "xv_dev/map_optical_frame"
  pose: 
    position: 
      x: 0.0020433246845791117
      y: -0.003672019339540661
      z: -0.006061333871410047
    orientation: 
      x: 0.010288439659933887
      y: -0.5882250095427136
      z: 0.808489887793007
      w: 0.015152144877017182
---
confidence: 0.2
poseMsg: 
  header: 
    seq: 0
    stamp: 
      secs: 9876
      nsecs: 330504000
    frame_id: "xv_dev/map_optical_frame"
  pose: 
    position: 
      x: 0.002048447230447804
      y: -0.0036843591219491217
      z: -0.0060600920030575035
    orientation: 
      x: 0.010279852723509852
      y: -0.5882194987874664
      z: 0.8084938826221225
      w: 0.015158747866991217
---
confidence: 0.2
poseMsg: 
  header: 
    seq: 0
    stamp: 
      secs: 9876
      nsecs: 332477000
    frame_id: "xv_dev/map_optical_frame"
  pose: 
    position: 
      x: 0.0020536604546446324
      y: -0.0036964046343150457
      z: -0.0060588715494707315
    orientation: 
      x: 0.010280073397278603
      y: -0.5882184085931043
      z: 0.8084947100602751
      w: 0.015156770361085328
---
confidence: 0.2
poseMsg: 
  header: 
    seq: 0
    stamp: 
      secs: 9876
      nsecs: 334527000
    frame_id: "xv_dev/map_optical_frame"
  pose: 
    position: 
      x: 0.002059163073706661
      y: -0.003708361189541494
      z: -0.0060574743840224685
    orientation: 
      x: 0.010274250073736798
      y: -0.5882223240918464
      z: 0.8084919562588343
      w: 0.015155655388567245
---
confidence: 0.2
poseMsg: 
  header: 
    seq: 0
    stamp: 
      secs: 9876
      nsecs: 336461000
    frame_id: "xv_dev/map_optical_frame"
  pose: 
    position: 
      x: 0.0020645146361838334
      y: -0.0037203574199766954
      z: -0.006056285563476544
    orientation: 
      x: 0.010278026488566875
      y: -0.5882213120794558
      z: 0.8084927216729209
      w: 0.015151540813436613
---
confidence: 0.2
poseMsg: 
  header: 
    seq: 0
    stamp: 
      secs: 9876
      nsecs: 338510000
    frame_id: "xv_dev/map_optical_frame"
  pose: 
    position: 
      x: 0.002070155197090859
      y: -0.0037323062954883225
      z: -0.0060549213698465245
    orientation: 
      x: 0.0102820797939415
      y: -0.5882213671694487
      z: 0.8084926490602908
      w: 0.015150526590638551
---
confidence: 0.25
poseMsg: 
  header: 
    seq: 0
    stamp: 
      secs: 9876
      nsecs: 340491000
    frame_id: "xv_dev/map_optical_frame"
  pose: 
    position: 
      x: 0.0020792389272599634
      y: -0.00376969780098079
      z: -0.0060585687545549926
    orientation: 
      x: 0.01028243436650549
      y: -0.5882129904647883
      z: 0.8084983474030006
      w: 0.015171408592184289
---
confidence: 0.25
poseMsg: 
  header: 
    seq: 0
    stamp: 
      secs: 9876
      nsecs: 342486000
    frame_id: "xv_dev/map_optical_frame"
  pose: 
    position: 
      x: 0.002086735436551081
      y: -0.003784081103991708
      z: -0.006062599497243331
    orientation: 
      x: 0.010281696460452128
      y: -0.5882135066258412
      z: 0.8084979647038358
      w: 0.015172290883923724
---
confidence: 0.25
poseMsg: 
  header: 
    seq: 0
    stamp: 
      secs: 9876
      nsecs: 344474000
    frame_id: "xv_dev/map_optical_frame"
  pose: 
    position: 
      x: 0.0020942021145072707
      y: -0.0037982517980930264
      z: -0.006066625094807884
    orientation: 
      x: 0.010285077786720508
      y: -0.588212209395125
      z: 0.8084989050782033
      w: 0.015170180646841124
---
confidence: 0.25
poseMsg: 
  header: 
    seq: 0
    stamp: 
      secs: 9876
      nsecs: 346547000
    frame_id: "xv_dev/map_optical_frame"
  pose: 
    position: 
      x: 0.002099792270041955
      y: -0.003799139906164007
      z: -0.006064811703947042
    orientation: 
      x: 0.01028701324752355
      y: -0.5882113590108295
      z: 0.8084995187438132
      w: 0.015169135775829207
---
confidence: 0.25
poseMsg: 
  header: 
    seq: 0
    stamp: 
      secs: 9876
      nsecs: 348452000
    frame_id: "xv_dev/map_optical_frame"
  pose: 
    position: 
      x: 0.0021049293883732972
      y: -0.003799956040209534
      z: -0.006063145273849468
    orientation: 
      x: 0.010288791854721181
      y: -0.5882105775402712
      z: 0.8085000826725218
      w: 0.015168175583140502
---
confidence: 0.25
poseMsg: 
  header: 
    seq: 0
    stamp: 
      secs: 9876
      nsecs: 350550000
    frame_id: "xv_dev/map_optical_frame"
  pose: 
    position: 
      x: 0.002116505375544255
      y: -0.0038417204472209233
      z: -0.006078529917021623
    orientation: 
      x: 0.01026773571587258
      y: -0.5882134187156988
      z: 0.8084980500726552
      w: 0.015180601926738684
---
confidence: 0.25
poseMsg: 
  header: 
    seq: 0
    stamp: 
      secs: 9876
      nsecs: 352452000
    frame_id: "xv_dev/map_optical_frame"
  pose: 
    position: 
      x: 0.002123750118241866
      y: -0.003856281211324667
      z: -0.006082542825006493
    orientation: 
      x: 0.010273188570659501
      y: -0.5882135570999667
      z: 0.8084980007242305
      w: 0.015174177585711882
---
confidence: 0.25
poseMsg: 
  header: 
    seq: 0
    stamp: 
      secs: 9876
      nsecs: 354537000
    frame_id: "xv_dev/map_optical_frame"
  pose: 
    position: 
      x: 0.00213154898711556
      y: -0.0038708888222433622
      z: -0.006086375815641421
    orientation: 
      x: 0.010274489548675252
      y: -0.5882122596391516
      z: 0.8084989647924476
      w: 0.015172224765758682
---
confidence: 0.25
poseMsg: 
  header: 
    seq: 0
    stamp: 
      secs: 9876
      nsecs: 356457000
    frame_id: "xv_dev/map_optical_frame"
  pose: 
    position: 
      x: 0.0021388718345934196
      y: -0.003885462682983556
      z: -0.006090374635472883
    orientation: 
      x: 0.010270762022214679
      y: -0.5882153400974349
      z: 0.8084967751153663
      w: 0.015172005460042897
---
confidence: 0.25
poseMsg: 
  header: 
    seq: 0
    stamp: 
      secs: 9876
      nsecs: 358528000
    frame_id: "xv_dev/map_optical_frame"
  pose: 
    position: 
      x: 0.002144500474499002
      y: -0.003886795398290965
      z: -0.006088468097317166
    orientation: 
      x: 0.010268677100398962
      y: -0.5882171441179842
      z: 0.8084955051673797
      w: 0.0151711489518312
---
confidence: 0.25
poseMsg: 
  header: 
    seq: 0
    stamp: 
      secs: 9876
      nsecs: 360489000
    frame_id: "xv_dev/map_optical_frame"
  pose: 
    position: 
      x: 0.002152184962032271
      y: -0.003900946741089142
      z: -0.006093059648992467
    orientation: 
      x: 0.010286342461480009
      y: -0.5882126493726274
      z: 0.8084988335645155
      w: 0.01515606814784923
---
confidence: 0.25
poseMsg: 
  header: 
    seq: 0
    stamp: 
      secs: 9876
      nsecs: 362539000
    frame_id: "xv_dev/map_optical_frame"
  pose: 
    position: 
      x: 0.002157814835709296
      y: -0.0039022300547437152
      z: -0.006091473701976663
    orientation: 
      x: 0.01028422762537839
      y: -0.588212179329119
      z: 0.808499192660359
      w: 0.015156589942012435
---
confidence: 0.2
poseMsg: 
  header: 
    seq: 0
    stamp: 
      secs: 9876
      nsecs: 364516000
    frame_id: "xv_dev/map_optical_frame"
  pose: 
    position: 
      x: 0.002161550184867568
      y: -0.003879205055792947
      z: -0.006094401331745002
    orientation: 
      x: 0.010282387538041692
      y: -0.5882060724347778
      z: 0.808503344943438
      w: 0.015173334265307646
---
confidence: 0.2
poseMsg: 
  header: 
    seq: 0
    stamp: 
      secs: 9876
      nsecs: 366558000
    frame_id: "xv_dev/map_optical_frame"
  pose: 
    position: 
      x: 0.0021672741079497913
      y: -0.003880979856953152
      z: -0.00610116452345378
    orientation: 
      x: 0.010293029312491426
      y: -0.5882076017405449
      z: 0.8085022859473419
